{
"type": "FeatureCollection",
"crs": { "type": "name", "properties": { "name": "urn:ogc:def:crs:OGC:1.3:CRS84" } },
                                                                                
"features": [
{ "type": "Feature", "properties": { "Name": "Terminal Alvorada", "Corredor": "TransCarioca", "Type": "Expresso\/Parador", "Status": "Operational" }, "geometry": { "type": "Point", "coordinates": [ -43.366061986999959, -23.000406468999923, 0.0 ] } },
{ "type": "Feature", "properties": { "Name": "Lourenço Jorge", "Corredor": "TransCarioca", "Type": "Parador", "Status": "Operational" }, "geometry": { "type": "Point", "coordinates": [ -43.36584560499994, -22.995607871999937, 0.0 ] } },
{ "type": "Feature", "properties": { "Name": "Aeroporto de Jacarepaguá", "Corredor": "TransCarioca", "Type": "Parador", "Status": "Operational" }, "geometry": { "type": "Point", "coordinates": [ -43.365779650999968, -22.989017794999935, 0.0 ] } },
{ "type": "Feature", "properties": { "Name": "Via Parque", "Corredor": "TransCarioca", "Type": "Parador", "Status": "Operational" }, "geometry": { "type": "Point", "coordinates": [ -43.365647221999943, -22.983973406999951, 0.0 ] } },
{ "type": "Feature", "properties": { "Name": "Centro Metropolitano", "Corredor": "TransCarioca", "Type": "Parador", "Status": "Operational" }, "geometry": { "type": "Point", "coordinates": [ -43.365640732999964, -22.973469536999971, 0.0 ] } },
{ "type": "Feature", "properties": { "Name": "Hospital Sarah", "Corredor": "TransCarioca", "Type": "Parador", "Status": "Operational" }, "geometry": { "type": "Point", "coordinates": [ -43.376634640999953, -22.973403547999965, 0.0 ] } },
{ "type": "Feature", "properties": { "Name": "Rio II", "Corredor": "TransCarioca", "Type": "Expresso\/Parador", "Status": "Operational" }, "geometry": { "type": "Point", "coordinates": [ -43.384246773999962, -22.973236504999932, 0.0 ] } },
{ "type": "Feature", "properties": { "Name": "Pedro Correia", "Corredor": "TransCarioca", "Type": "Parador", "Status": "Operational" }, "geometry": { "type": "Point", "coordinates": [ -43.390604697999947, -22.967737890999956, 0.0 ] } },
{ "type": "Feature", "properties": { "Name": "Curicica", "Corredor": "TransCarioca", "Type": "Parador", "Status": "Operational" }, "geometry": { "type": "Point", "coordinates": [ -43.388718393999966, -22.959925086999927, 0.0 ] } },
{ "type": "Feature", "properties": { "Name": "Praça do Bandolim", "Corredor": "TransCarioca", "Type": "Parador", "Status": "Operational" }, "geometry": { "type": "Point", "coordinates": [ -43.383351199999936, -22.958609520999971, 0.0 ] } },
{ "type": "Feature", "properties": { "Name": "Arroio Pavuna", "Corredor": "TransCarioca", "Type": "Parador", "Status": "Operational" }, "geometry": { "type": "Point", "coordinates": [ -43.377325391999932, -22.955291336999949, 0.0 ] } },
{ "type": "Feature", "properties": { "Name": "Vila Sapê - IV Centenário", "Corredor": "TransCarioca", "Type": "Parador", "Status": "Operational" }, "geometry": { "type": "Point", "coordinates": [ -43.374611838999954, -22.952338384999962, 0.0 ] } },
{ "type": "Feature", "properties": { "Name": "Recanto das Palmeiras - Jardim São Luiz", "Corredor": "TransCarioca", "Type": "Parador", "Status": "Operational" }, "geometry": { "type": "Point", "coordinates": [ -43.372384133999958, -22.948212454999975, 0.0 ] } },
{ "type": "Feature", "properties": { "Name": "Divina Providência", "Corredor": "TransCarioca", "Type": "Parador", "Status": "Operational" }, "geometry": { "type": "Point", "coordinates": [ -43.372519022999938, -22.940667474999941, 0.0 ] } },
{ "type": "Feature", "properties": { "Name": "Santa Efigênia", "Corredor": "TransCarioca", "Type": "Expresso\/Parador", "Status": "Operational" }, "geometry": { "type": "Point", "coordinates": [ -43.371751912999969, -22.936626967999928, 0.0 ] } },
{ "type": "Feature", "properties": { "Name": "Merck", "Corredor": "TransCarioca", "Type": "Parador", "Status": "Operational" }, "geometry": { "type": "Point", "coordinates": [ -43.371763120999951, -22.935556608999946, 0.0 ] } },
{ "type": "Feature", "properties": { "Name": "André Rocha", "Corredor": "TransCarioca", "Type": "Parador", "Status": "Operational" }, "geometry": { "type": "Point", "coordinates": [ -43.373374528999932, -22.929403412999932, 0.0 ] } },
{ "type": "Feature", "properties": { "Name": "Taquara", "Corredor": "TransCarioca", "Type": "Expresso\/Parador", "Status": "Operational" }, "geometry": { "type": "Point", "coordinates": [ -43.373839480999941, -22.924146657999927, 0.0 ] } },
{ "type": "Feature", "properties": { "Name": "Aracy Cabral", "Corredor": "TransCarioca", "Type": "Parador", "Status": "Operational" }, "geometry": { "type": "Point", "coordinates": [ -43.368258740999977, -22.920134486999924, 0.0 ] } },
{ "type": "Feature", "properties": { "Name": "Tanque \/ Terminal Mestre Candeia", "Corredor": "TransCarioca", "Type": "Expresso\/Parador", "Status": "Operational" }, "geometry": { "type": "Point", "coordinates": [ -43.361241720999942, -22.915564970999981, 0.0 ] } },
{ "type": "Feature", "properties": { "Name": "IPASE", "Corredor": "TransCarioca", "Type": "Parador", "Status": "Operational" }, "geometry": { "type": "Point", "coordinates": [ -43.357044721999948, -22.904726799999935, 0.0 ] } },
{ "type": "Feature", "properties": { "Name": "Praça Seca", "Corredor": "TransCarioca", "Type": "Expresso\/Parador", "Status": "Operational" }, "geometry": { "type": "Point", "coordinates": [ -43.352240207999955, -22.897717927999963, 0.0 ] } },
{ "type": "Feature", "properties": { "Name": "Capitão Menezes", "Corredor": "TransCarioca", "Type": "Parador", "Status": "Operational" }, "geometry": { "type": "Point", "coordinates": [ -43.348627989999954, -22.892801669999979, 0.0 ] } },
{ "type": "Feature", "properties": { "Name": "Pinto Teles", "Corredor": "TransCarioca", "Type": "Parador", "Status": "Operational" }, "geometry": { "type": "Point", "coordinates": [ -43.34583943399997, -22.888383895999937, 0.0 ] } },
{ "type": "Feature", "properties": { "Name": "Campinho", "Corredor": "TransCarioca", "Type": "Parador", "Status": "Operational" }, "geometry": { "type": "Point", "coordinates": [ -43.342128216999981, -22.88222690799995, 0.0 ] } },
{ "type": "Feature", "properties": { "Name": "Madureira - Manaceia", "Corredor": "TransCarioca", "Type": "Expresso\/Parador", "Status": "Operational" }, "geometry": { "type": "Point", "coordinates": [ -43.33612169, -22.877581980999935, 0.0 ] } },
{ "type": "Feature", "properties": { "Name": "Mercadão", "Corredor": "TransCarioca", "Type": "Expresso\/Parador", "Status": "Operational" }, "geometry": { "type": "Point", "coordinates": [ -43.335512955999945, -22.870011200999954, 0.0 ] } },
{ "type": "Feature", "properties": { "Name": "Otaviano", "Corredor": "TransCarioca", "Type": "Parador", "Status": "Operational" }, "geometry": { "type": "Point", "coordinates": [ -43.334420762999969, -22.86587661499993, 0.0 ] } },
{ "type": "Feature", "properties": { "Name": "Vila Queiroz", "Corredor": "TransCarioca", "Type": "Parador", "Status": "Operational" }, "geometry": { "type": "Point", "coordinates": [ -43.33041589599997, -22.861518115999957, 0.0 ] } },
{ "type": "Feature", "properties": { "Name": "Vaz Lobo", "Corredor": "TransCarioca", "Type": "Parador", "Status": "Operational" }, "geometry": { "type": "Point", "coordinates": [ -43.328408242999956, -22.856634570999972, 0.0 ] } },
{ "type": "Feature", "properties": { "Name": "Marambaia", "Corredor": "TransCarioca", "Type": "Parador", "Status": "Operational" }, "geometry": { "type": "Point", "coordinates": [ -43.320459781999936, -22.853046427999971, 0.0 ] } },
{ "type": "Feature", "properties": { "Name": "Vicente de Carvalho", "Corredor": "TransCarioca", "Type": "Expresso\/Parador", "Status": "Operational" }, "geometry": { "type": "Point", "coordinates": [ -43.312858675999962, -22.852747704999956, 0.0 ] } },
{ "type": "Feature", "properties": { "Name": "Vila Kosmos - Nossa Senhora do Carmo", "Corredor": "TransCarioca", "Type": "Parador", "Status": "Operational" }, "geometry": { "type": "Point", "coordinates": [ -43.307976570999983, -22.849765260999959, 0.0 ] } },
{ "type": "Feature", "properties": { "Name": "Pedro Taques", "Corredor": "TransCarioca", "Type": "Parador", "Status": "Operational" }, "geometry": { "type": "Point", "coordinates": [ -43.298748183999969, -22.841507369999931, 0.0 ] } },
{ "type": "Feature", "properties": { "Name": "Praça do Carmo", "Corredor": "TransCarioca", "Type": "Parador", "Status": "Operational" }, "geometry": { "type": "Point", "coordinates": [ -43.295112281999934, -22.838842988999939, 0.0 ] } },
{ "type": "Feature", "properties": { "Name": "Guaporé", "Corredor": "TransCarioca", "Type": "Parador", "Status": "Operational" }, "geometry": { "type": "Point", "coordinates": [ -43.289828703999937, -22.837738796999929, 0.0 ] } },
{ "type": "Feature", "properties": { "Name": "Pastor José Santos", "Corredor": "TransCarioca", "Type": "Parador", "Status": "Operational" }, "geometry": { "type": "Point", "coordinates": [ -43.283394812999973, -22.839119087999961, 0.0 ] } },
{ "type": "Feature", "properties": { "Name": "Estaçao Penha II", "Corredor": "TransCarioca", "Type": "Expresso\/Parador", "Status": "Operational" }, "geometry": { "type": "Point", "coordinates": [ -43.277238680999972, -22.842587932999944, 0.0 ] } },
{ "type": "Feature", "properties": { "Name": "Estaçao Penha I", "Corredor": "TransCarioca", "Type": "Expresso\/Parador", "Status": "Operational" }, "geometry": { "type": "Point", "coordinates": [ -43.277419331999965, -22.841917825999928, 0.0 ] } },
{ "type": "Feature", "properties": { "Name": "Ibiapina", "Corredor": "TransCarioca", "Type": "Parador", "Status": "Operational" }, "geometry": { "type": "Point", "coordinates": [ -43.272462674999986, -22.842375893999929, 0.0 ] } },
{ "type": "Feature", "properties": { "Name": "Olaria - Cacique de Ramos", "Corredor": "TransCarioca", "Type": "Parador", "Status": "Operational" }, "geometry": { "type": "Point", "coordinates": [ -43.26546469799996, -22.848617784999931, 0.0 ] } },
{ "type": "Feature", "properties": { "Name": "Cardoso de Moraes - Viúva Garcia", "Corredor": "TransCarioca", "Type": "Parador", "Status": "Operational" }, "geometry": { "type": "Point", "coordinates": [ -43.25828245799994, -22.857439849999935, 0.0 ] } },
{ "type": "Feature", "properties": { "Name": "Santa Luzia", "Corredor": "TransCarioca", "Type": "Parador", "Status": "Operational" }, "geometry": { "type": "Point", "coordinates": [ -43.252480613999971, -22.855141599999968, 0.0 ] } },
{ "type": "Feature", "properties": { "Name": "Maré", "Corredor": "TransCarioca", "Type": "Parador", "Status": "Operational" }, "geometry": { "type": "Point", "coordinates": [ -43.243875577999972, -22.84709965299993, 0.0 ] } },
{ "type": "Feature", "properties": { "Name": "Terminal Fundão - Aroldo Melodia", "Corredor": "TransCarioca", "Type": "Expresso\/Parador", "Status": "Operational" }, "geometry": { "type": "Point", "coordinates": [ -43.240038442999946, -22.839829975999972, 0.0 ] } },
{ "type": "Feature", "properties": { "Name": "Galeão - Tom Jobim 2", "Corredor": "TransCarioca", "Type": "Parador", "Status": "Operational" }, "geometry": { "type": "Point", "coordinates": [ -43.246409810999978, -22.814452267999968, 0.0 ] } },
{ "type": "Feature", "properties": { "Name": "Galeão - Tom Jobim 1", "Corredor": "TransCarioca", "Type": "Expresso\/Parador\/Semi-Direto", "Status": "Operational" }, "geometry": { "type": "Point", "coordinates": [ -43.251481602999945, -22.811257137999974, 0.0 ] } },
{ "type": "Feature", "properties": { "Name": "Terminal Campo Grande", "Corredor": "TransOeste", "Type": null, "Status": "Operational" }, "geometry": { "type": "Point", "coordinates": [ -43.554268, -22.901953, 0.0 ] } },
{ "type": "Feature", "properties": { "Name": "Terminal Jardim Oceânico (2016)", "Corredor": "TransOeste", "Type": null, "Status": "Planned" }, "geometry": { "type": "Point", "coordinates": [ -43.311367, -23.007069, 0.0 ] } },
{ "type": "Feature", "properties": { "Name": "Terminal Santa Cruz", "Corredor": "TransOeste", "Type": null, "Status": "Operational" }, "geometry": { "type": "Point", "coordinates": [ -43.684387, -22.915709, 0.0 ] } },
{ "type": "Feature", "properties": { "Name": "Cesarão I", "Corredor": "TransOeste", "Type": null, "Status": "Operational" }, "geometry": { "type": "Point", "coordinates": [ -43.665445825999939, -22.934719697999981, 0.0 ] } },
{ "type": "Feature", "properties": { "Name": "Cesarão II", "Corredor": "TransOeste", "Type": null, "Status": "Operational" }, "geometry": { "type": "Point", "coordinates": [ -43.661968593999973, -22.93343323199997, 0.0 ] } },
{ "type": "Feature", "properties": { "Name": "Cesarão III", "Corredor": "TransOeste", "Type": null, "Status": "Operational" }, "geometry": { "type": "Point", "coordinates": [ -43.657220412999948, -22.931790727999953, 0.0 ] } },
{ "type": "Feature", "properties": { "Name": "Vila Paciência", "Corredor": "TransOeste", "Type": null, "Status": "Operational" }, "geometry": { "type": "Point", "coordinates": [ -43.653813310999965, -22.928376559999947, 0.0 ] } },
{ "type": "Feature", "properties": { "Name": "Três Pontes", "Corredor": "TransOeste", "Type": null, "Status": "Operational" }, "geometry": { "type": "Point", "coordinates": [ -43.649910600999931, -22.925410566999972, 0.0 ] } },
{ "type": "Feature", "properties": { "Name": "Cesarinho", "Corredor": "TransOeste", "Type": null, "Status": "Operational" }, "geometry": { "type": "Point", "coordinates": [ -43.643514837999923, -22.920449038999948, 0.0 ] } },
{ "type": "Feature", "properties": { "Name": "31 de Outubro", "Corredor": "TransOeste", "Type": null, "Status": "Operational" }, "geometry": { "type": "Point", "coordinates": [ -43.639076818999968, -22.918259155999976, 0.0 ] } },
{ "type": "Feature", "properties": { "Name": "Santa Eugênia", "Corredor": "TransOeste", "Type": null, "Status": "Operational" }, "geometry": { "type": "Point", "coordinates": [ -43.632811755999967, -22.916785413999943, 0.0 ] } },
{ "type": "Feature", "properties": { "Name": "Julia Miguel", "Corredor": "TransOeste", "Type": null, "Status": "Operational" }, "geometry": { "type": "Point", "coordinates": [ -43.627973567999959, -22.915627274999959, 0.0 ] } },
{ "type": "Feature", "properties": { "Name": "Parque São Paulo", "Corredor": "TransOeste", "Type": null, "Status": "Operational" }, "geometry": { "type": "Point", "coordinates": [ -43.62251426499995, -22.916242465999972, 0.0 ] } },
{ "type": "Feature", "properties": { "Name": "Cosmos", "Corredor": "TransOeste", "Type": null, "Status": "Operational" }, "geometry": { "type": "Point", "coordinates": [ -43.616085741999939, -22.915646894999952, 0.0 ] } },
{ "type": "Feature", "properties": { "Name": "Icurana", "Corredor": "TransOeste", "Type": null, "Status": "Operational" }, "geometry": { "type": "Point", "coordinates": [ -43.605838773999949, -22.915113015999964, 0.0 ] } },
{ "type": "Feature", "properties": { "Name": "Vilar Carioca", "Corredor": "TransOeste", "Type": null, "Status": "Operational" }, "geometry": { "type": "Point", "coordinates": [ -43.601429411999959, -22.914203460999943, 0.0 ] } },
{ "type": "Feature", "properties": { "Name": "Inhoaíba", "Corredor": "TransOeste", "Type": null, "Status": "Operational" }, "geometry": { "type": "Point", "coordinates": [ -43.594563900999958, -22.912831946999972, 0.0 ] } },
{ "type": "Feature", "properties": { "Name": "Ana Gonzaga", "Corredor": "TransOeste", "Type": null, "Status": "Operational" }, "geometry": { "type": "Point", "coordinates": [ -43.589744347999954, -22.9113131899999, 0.0 ] } },
{ "type": "Feature", "properties": { "Name": "São Jorge", "Corredor": "TransOeste", "Type": null, "Status": "Operational" }, "geometry": { "type": "Point", "coordinates": [ -43.584166889999949, -22.910837409999942, 0.0 ] } },
{ "type": "Feature", "properties": { "Name": "Pina Rangel", "Corredor": "TransOeste", "Type": null, "Status": "Operational" }, "geometry": { "type": "Point", "coordinates": [ -43.575861274999966, -22.907559718999948, 0.0 ] } },
{ "type": "Feature", "properties": { "Name": "Parque Esperança", "Corredor": "TransOeste", "Type": null, "Status": "Operational" }, "geometry": { "type": "Point", "coordinates": [ -43.571721171999968, -22.906949844999929, 0.0 ] } },
{ "type": "Feature", "properties": { "Name": "ParkShopping", "Corredor": "TransOeste", "Type": null, "Status": "Planned" }, "geometry": { "type": "Point", "coordinates": [ -43.57398650399994, -22.929802741999932, 0.0 ] } },
{ "type": "Feature", "properties": { "Name": "Largo do Corrêa (em estudo)", "Corredor": "TransOeste", "Type": null, "Status": "Planned" }, "geometry": { "type": "Point", "coordinates": [ -43.577865168999949, -22.956149786999958, 0.0 ] } },
{ "type": "Feature", "properties": { "Name": "Maria Tereza", "Corredor": "TransOeste", "Type": null, "Status": "Planned" }, "geometry": { "type": "Point", "coordinates": [ -43.565913175999981, -22.908096696999962, 0.0 ] } },
{ "type": "Feature", "properties": { "Name": "Cândido Magalhães", "Corredor": "TransOeste", "Type": null, "Status": "Operational" }, "geometry": { "type": "Point", "coordinates": [ -43.563975184999947, -22.90763100199996, 0.0 ] } },
{ "type": "Feature", "properties": { "Name": "Terminal Campo Grande", "Corredor": "TransOeste", "Type": null, "Status": "Operational" }, "geometry": { "type": "Point", "coordinates": [ -43.55491008499996, -22.901766554999938, 0.0 ] } },
{ "type": "Feature", "properties": { "Name": "Prefeito Alim Pedro", "Corredor": "TransOeste", "Type": null, "Status": "Operational" }, "geometry": { "type": "Point", "coordinates": [ -43.566244191999942, -22.90356097199998, 0.0 ] } },
{ "type": "Feature", "properties": { "Name": "Vendas de Varanda", "Corredor": "TransOeste", "Type": null, "Status": "Operational" }, "geometry": { "type": "Point", "coordinates": [ -43.650992240999983, -22.950684654999971, 0.0 ] } },
{ "type": "Feature", "properties": { "Name": "Curral Falso", "Corredor": "TransOeste", "Type": null, "Status": "Operational" }, "geometry": { "type": "Point", "coordinates": [ -43.66693234, -22.93655771799996, 0.0 ] } },
{ "type": "Feature", "properties": { "Name": "Santa Veridiana", "Corredor": "TransOeste", "Type": null, "Status": "Operational" }, "geometry": { "type": "Point", "coordinates": [ -43.665256402999944, -22.940529435999963, 0.0 ] } },
{ "type": "Feature", "properties": { "Name": "Cajueiros", "Corredor": "TransOeste", "Type": null, "Status": "Operational" }, "geometry": { "type": "Point", "coordinates": [ -43.673466900999983, -22.930898512999931, 0.0 ] } },
{ "type": "Feature", "properties": { "Name": "Gastão Rangel", "Corredor": "TransOeste", "Type": null, "Status": "Operational" }, "geometry": { "type": "Point", "coordinates": [ -43.677574404999973, -22.927566079999963, 0.0 ] } },
{ "type": "Feature", "properties": { "Name": "General Olímpio", "Corredor": "TransOeste", "Type": null, "Status": "Operational" }, "geometry": { "type": "Point", "coordinates": [ -43.679642937999972, -22.922282761999952, 0.0 ] } },
{ "type": "Feature", "properties": { "Name": "Terminal Santa Cruz", "Corredor": "TransOeste", "Type": null, "Status": "Operational" }, "geometry": { "type": "Point", "coordinates": [ -43.683589552999933, -22.917148250999954, 0.0 ] } },
{ "type": "Feature", "properties": { "Name": "Terminal Jd. Oceânico (2ª etapa)", "Corredor": "TransOeste", "Type": null, "Status": "Planned" }, "geometry": { "type": "Point", "coordinates": [ -43.311048291999953, -23.006144665999951, 0.0 ] } },
{ "type": "Feature", "properties": { "Name": "Cittá América (2ª etapa)", "Corredor": "TransOeste", "Type": null, "Status": "Planned" }, "geometry": { "type": "Point", "coordinates": [ -43.323162590999964, -23.003664442999934, 0.0 ] } },
{ "type": "Feature", "properties": { "Name": "Porto dos Cabritos (2ª etapa)", "Corredor": "TransOeste", "Type": null, "Status": "Planned" }, "geometry": { "type": "Point", "coordinates": [ -43.328694032999977, -23.001411987999973, 0.0 ] } },
{ "type": "Feature", "properties": { "Name": "Freeway (2ª etapa)", "Corredor": "TransOeste", "Type": null, "Status": "Planned" }, "geometry": { "type": "Point", "coordinates": [ -43.335047780999957, -23.000586030999955, 0.0 ] } },
{ "type": "Feature", "properties": { "Name": "Riviera (2ª etapa)", "Corredor": "TransOeste", "Type": null, "Status": "Planned" }, "geometry": { "type": "Point", "coordinates": [ -43.340264326999943, -23.000298284999928, 0.0 ] } },
{ "type": "Feature", "properties": { "Name": "Ricardo Marinho (2ª etapa)", "Corredor": "TransOeste", "Type": null, "Status": "Planned" }, "geometry": { "type": "Point", "coordinates": [ -43.346749748999962, -23.00017861799995, 0.0 ] } },
{ "type": "Feature", "properties": { "Name": "Parque das Rosas (2ª etapa)", "Corredor": "TransOeste", "Type": null, "Status": "Planned" }, "geometry": { "type": "Point", "coordinates": [ -43.353060905999932, -23.000077476999934, 0.0 ] } },
{ "type": "Feature", "properties": { "Name": "Barra Shopping (2ª etapa)", "Corredor": "TransOeste", "Type": null, "Status": "Planned" }, "geometry": { "type": "Point", "coordinates": [ -43.360628389999931, -22.999979645999929, 0.0 ] } },
{ "type": "Feature", "properties": { "Name": "Term. Alvorada", "Corredor": "TransOeste", "Type": null, "Status": "Operational" }, "geometry": { "type": "Point", "coordinates": [ -43.365743273999954, -23.000136718999951, 0.0 ] } },
{ "type": "Feature", "properties": { "Name": "Bosque da Barra", "Corredor": "TransOeste", "Type": null, "Status": "Operational" }, "geometry": { "type": "Point", "coordinates": [ -43.37811688499994, -23.000361957999928, 0.0 ] } },
{ "type": "Feature", "properties": { "Name": "Novo Leblon", "Corredor": "TransOeste", "Type": null, "Status": "Operational" }, "geometry": { "type": "Point", "coordinates": [ -43.382749683999975, -23.000448412999955, 0.0 ] } },
{ "type": "Feature", "properties": { "Name": "Américas Park", "Corredor": "TransOeste", "Type": null, "Status": "Operational" }, "geometry": { "type": "Point", "coordinates": [ -43.388732635999929, -23.000472266999964, 0.0 ] } },
{ "type": "Feature", "properties": { "Name": "Santa Mônica Jardins", "Corredor": "TransOeste", "Type": null, "Status": "Operational" }, "geometry": { "type": "Point", "coordinates": [ -43.397300777999931, -23.000269815999957, 0.0 ] } },
{ "type": "Feature", "properties": { "Name": "Rio Mar", "Corredor": "TransOeste", "Type": null, "Status": "Operational" }, "geometry": { "type": "Point", "coordinates": [ -43.407324984999946, -22.999930463999931, 0.0 ] } },
{ "type": "Feature", "properties": { "Name": "Golfe Olímpico", "Corredor": "TransOeste", "Type": null, "Status": "Operational" }, "geometry": { "type": "Point", "coordinates": [ -43.412122394999983, -23.000051042999928, 0.0 ] } },
{ "type": "Feature", "properties": { "Name": "Interlagos", "Corredor": "TransOeste", "Type": null, "Status": "Operational" }, "geometry": { "type": "Point", "coordinates": [ -43.417237629999931, -23.000847866999948, 0.0 ] } },
{ "type": "Feature", "properties": { "Name": "Pedra de Itaúna", "Corredor": "TransOeste", "Type": null, "Status": "Operational" }, "geometry": { "type": "Point", "coordinates": [ -43.424817513999983, -23.003201886999932, 0.0 ] } },
{ "type": "Feature", "properties": { "Name": "Pontões\/ Barrasul", "Corredor": "TransOeste", "Type": null, "Status": "Operational" }, "geometry": { "type": "Point", "coordinates": [ -43.43131339699994, -23.005353387999946, 0.0 ] } },
{ "type": "Feature", "properties": { "Name": "Salvador Allende", "Corredor": "TransOeste", "Type": null, "Status": "Operational" }, "geometry": { "type": "Point", "coordinates": [ -43.441738052999938, -23.008029636999936, 0.0 ] } },
{ "type": "Feature", "properties": { "Name": "Gelson Fonseca", "Corredor": "TransOeste", "Type": null, "Status": "Operational" }, "geometry": { "type": "Point", "coordinates": [ -43.446576668999967, -23.009272454999973, 0.0 ] } },
{ "type": "Feature", "properties": { "Name": "Guignard", "Corredor": "TransOeste", "Type": null, "Status": "Operational" }, "geometry": { "type": "Point", "coordinates": [ -43.45274223399997, -23.010866547999967, 0.0 ] } },
{ "type": "Feature", "properties": { "Name": "Gláucio Gil", "Corredor": "TransOeste", "Type": null, "Status": "Operational" }, "geometry": { "type": "Point", "coordinates": [ -43.458910750999962, -23.012416689999952, 0.0 ] } },
{ "type": "Feature", "properties": { "Name": "Benvindo de Novaes", "Corredor": "TransOeste", "Type": null, "Status": "Operational" }, "geometry": { "type": "Point", "coordinates": [ -43.466944683999941, -23.014524464999965, 0.0 ] } },
{ "type": "Feature", "properties": { "Name": "Nova Barra", "Corredor": "TransOeste", "Type": null, "Status": "Operational" }, "geometry": { "type": "Point", "coordinates": [ -43.471914306999963, -23.015735812999932, 0.0 ] } },
{ "type": "Feature", "properties": { "Name": "Gilka Machado", "Corredor": "TransOeste", "Type": null, "Status": "Operational" }, "geometry": { "type": "Point", "coordinates": [ -43.477019287999951, -23.017041870999947, 0.0 ] } },
{ "type": "Feature", "properties": { "Name": "Guiomar Novais", "Corredor": "TransOeste", "Type": null, "Status": "Operational" }, "geometry": { "type": "Point", "coordinates": [ -43.481952422999939, -23.018324266999969, 0.0 ] } },
{ "type": "Feature", "properties": { "Name": "Recreio Shopping", "Corredor": "TransOeste", "Type": null, "Status": "Operational" }, "geometry": { "type": "Point", "coordinates": [ -43.487222177999968, -23.019655037999939, 0.0 ] } },
{ "type": "Feature", "properties": { "Name": "Recanto das Garças", "Corredor": "TransOeste", "Type": null, "Status": "Operational" }, "geometry": { "type": "Point", "coordinates": [ -43.495192311999965, -23.021155065999949, 0.0 ] } },
{ "type": "Feature", "properties": { "Name": "Notre Dame", "Corredor": "TransOeste", "Type": null, "Status": "Operational" }, "geometry": { "type": "Point", "coordinates": [ -43.500346461999982, -23.020699153999942, 0.0 ] } },
{ "type": "Feature", "properties": { "Name": "Dom Bosco", "Corredor": "TransOeste", "Type": null, "Status": "Operational" }, "geometry": { "type": "Point", "coordinates": [ -43.508112424999979, -23.018611840999938, 0.0 ] } },
{ "type": "Feature", "properties": { "Name": "Pontal", "Corredor": "TransOeste", "Type": null, "Status": "Operational" }, "geometry": { "type": "Point", "coordinates": [ -43.516866873999959, -23.016100814999959, 0.0 ] } },
{ "type": "Feature", "properties": { "Name": "Ilha de Guaratiba", "Corredor": "TransOeste", "Type": null, "Status": "Operational" }, "geometry": { "type": "Point", "coordinates": [ -43.542257612999947, -23.009332806999964, 0.0 ] } },
{ "type": "Feature", "properties": { "Name": "Cetex", "Corredor": "TransOeste", "Type": null, "Status": "Operational" }, "geometry": { "type": "Point", "coordinates": [ -43.558417765999934, -23.005371857999929, 0.0 ] } },
{ "type": "Feature", "properties": { "Name": "Embrapa", "Corredor": "TransOeste", "Type": null, "Status": "Operational" }, "geometry": { "type": "Point", "coordinates": [ -43.582283190999931, -22.999731632999953, 0.0 ] } },
{ "type": "Feature", "properties": { "Name": "Mato Alto", "Corredor": "TransOeste", "Type": null, "Status": "Operational" }, "geometry": { "type": "Point", "coordinates": [ -43.596724327999937, -22.993864873999939, 0.0 ] } },
{ "type": "Feature", "properties": { "Name": "Magarça", "Corredor": "TransOeste", "Type": null, "Status": "Operational" }, "geometry": { "type": "Point", "coordinates": [ -43.621981550999976, -22.968544004999956, 0.0 ] } },
{ "type": "Feature", "properties": { "Name": "Pingo D'água", "Corredor": "TransOeste", "Type": null, "Status": "Operational" }, "geometry": { "type": "Point", "coordinates": [ -43.647133453999963, -22.96569685299994, 0.0 ] } },
{ "type": "Feature", "properties": { "Name": "Terminal Deodoro", "Corredor": "TransBrasil", "Type": null, "Status": "Planned" }, "geometry": { "type": "Point", "coordinates": [ -43.384863122999946, -22.855722815999965, 0.0 ] } },
{ "type": "Feature", "properties": { "Name": "Carrefour", "Corredor": "TransBrasil", "Type": null, "Status": "Planned" }, "geometry": { "type": "Point", "coordinates": [ -43.377173748999944, -22.845052519999967, 0.0 ] } },
{ "type": "Feature", "properties": { "Name": "Barros Filho", "Corredor": "TransBrasil", "Type": null, "Status": "Planned" }, "geometry": { "type": "Point", "coordinates": [ -43.368678620999958, -22.839779926999938, 0.0 ] } },
{ "type": "Feature", "properties": { "Name": "Coelho Neto", "Corredor": "TransBrasil", "Type": null, "Status": "Planned" }, "geometry": { "type": "Point", "coordinates": [ -43.350847683999966, -22.831040709999964, 0.0 ] } },
{ "type": "Feature", "properties": { "Name": "Irajá", "Corredor": "TransBrasil", "Type": null, "Status": "Planned" }, "geometry": { "type": "Point", "coordinates": [ -43.328153620999956, -22.82287651799993, 0.0 ] } },
{ "type": "Feature", "properties": { "Name": "Correia Andrade", "Corredor": "TransBrasil", "Type": null, "Status": "Planned" }, "geometry": { "type": "Point", "coordinates": [ -43.308405507999964, -22.818187841999929, 0.0 ] } },
{ "type": "Feature", "properties": { "Name": "Ponto Chique", "Corredor": "TransBrasil", "Type": null, "Status": "Planned" }, "geometry": { "type": "Point", "coordinates": [ -43.292380126999944, -22.814925850999941, 0.0 ] } },
{ "type": "Feature", "properties": { "Name": "Terminal Margaridas", "Corredor": "TransBrasil", "Type": null, "Status": "Planned" }, "geometry": { "type": "Point", "coordinates": [ -43.323199822999982, -22.820153657999981, 0.0 ] } },
{ "type": "Feature", "properties": { "Name": "Terminal Américo Fontenelle", "Corredor": "TransBrasil", "Type": null, "Status": "Planned" }, "geometry": { "type": "Point", "coordinates": [ -43.192233551970261, -22.901546731723187, 0.0 ] } },
{ "type": "Feature", "properties": { "Name": "Terminal Missões", "Corredor": "TransBrasil", "Type": null, "Status": "Planned" }, "geometry": { "type": "Point", "coordinates": [ -43.290288016999966, -22.813862068999981, 0.0 ] } },
{ "type": "Feature", "properties": { "Name": "Brás de Pina", "Corredor": "TransBrasil", "Type": null, "Status": "Planned" }, "geometry": { "type": "Point", "coordinates": [ -43.284013429999959, -22.819559578999929, 0.0 ] } },
{ "type": "Feature", "properties": { "Name": "Marinha do Brasil", "Corredor": "TransBrasil", "Type": null, "Status": "Planned" }, "geometry": { "type": "Point", "coordinates": [ -43.271791836999967, -22.829123177999975, 0.0 ] } },
{ "type": "Feature", "properties": { "Name": "Marinha Mercante", "Corredor": "TransBrasil", "Type": null, "Status": "Planned" }, "geometry": { "type": "Point", "coordinates": [ -43.258096523999939, -22.836947540999972, 0.0 ] } },
{ "type": "Feature", "properties": { "Name": "Ramos", "Corredor": "TransBrasil", "Type": null, "Status": "Planned" }, "geometry": { "type": "Point", "coordinates": [ -43.251022025999923, -22.842961656999933, 0.0 ] } },
{ "type": "Feature", "properties": { "Name": "Rubens Vaz", "Corredor": "TransBrasil", "Type": null, "Status": "Planned" }, "geometry": { "type": "Point", "coordinates": [ -43.247635228999968, -22.853100716999961, 0.0 ] } },
{ "type": "Feature", "properties": { "Name": "Nova Holanda", "Corredor": "TransBrasil", "Type": null, "Status": "Planned" }, "geometry": { "type": "Point", "coordinates": [ -43.247814993999945, -22.860983003999934, 0.0 ] } },
{ "type": "Feature", "properties": { "Name": "Joana Nascimento", "Corredor": "TransBrasil", "Type": null, "Status": "Planned" }, "geometry": { "type": "Point", "coordinates": [ -43.247626545999935, -22.866630405999956, 0.0 ] } },
{ "type": "Feature", "properties": { "Name": "Fiocruz", "Corredor": "TransBrasil", "Type": null, "Status": "Planned" }, "geometry": { "type": "Point", "coordinates": [ -43.24302232499997, -22.87533465599995, 0.0 ] } },
{ "type": "Feature", "properties": { "Name": "Parque Vitória", "Corredor": "TransBrasil", "Type": null, "Status": "Planned" }, "geometry": { "type": "Point", "coordinates": [ -43.236250954999939, -22.884183683999936, 0.0 ] } },
{ "type": "Feature", "properties": { "Name": "São Francisco", "Corredor": "TransBrasil", "Type": null, "Status": "Planned" }, "geometry": { "type": "Point", "coordinates": [ -43.224533092999927, -22.886861580999948, 0.0 ] } },
{ "type": "Feature", "properties": { "Name": "I.N.T.O", "Corredor": "TransBrasil", "Type": null, "Status": "Planned" }, "geometry": { "type": "Point", "coordinates": [ -43.215397884999959, -22.893877392999968, 0.0 ] } },
{ "type": "Feature", "properties": { "Name": "Terminal de Integração BRT-VLT", "Corredor": "TransBrasil", "Type": null, "Status": "Planned" }, "geometry": { "type": "Point", "coordinates": [ -43.210871239999946, -22.898748474999934, 0.0 ] } },
{ "type": "Feature", "properties": { "Name": "Terminal Ilha (Em estudo)", "Corredor": "TransBrasil", "Type": null, "Status": "In Study" }, "geometry": { "type": "Point", "coordinates": [ -43.232206580999957, -22.824992449999968, 0.0 ] } },
{ "type": "Feature", "properties": { "Name": "Estaçao Penha", "Corredor": "TransBrasil", "Type": null, "Status": "In Study" }, "geometry": { "type": "Point", "coordinates": [ -43.278120315999956, -22.842145711999933, 0.0 ] } },
{ "type": "Feature", "properties": { "Name": "Terminal Procópio Ferreira", "Corredor": "TransBrasil", "Type": null, "Status": "Planned" }, "geometry": { "type": "Point", "coordinates": [ -43.190349807307115, -22.904942777317853, 0.0 ] } },
{ "type": "Feature", "properties": { "Name": "Terminal Recreio", "Corredor": "TransOlímpica", "Type": null, "Status": "Planned" }, "geometry": { "type": "Point", "coordinates": [ -43.440932600999986, -23.008588654999983, 0.0 ] } },
{ "type": "Feature", "properties": { "Name": "Terminal Deodoro", "Corredor": "TransOlímpica", "Type": null, "Status": "Planned" }, "geometry": { "type": "Point", "coordinates": [ -43.384866488999933, -22.855712567999944, 0.0 ] } },
{ "type": "Feature", "properties": { "Name": "Estaçao", "Corredor": "TransOlímpica", "Type": null, "Status": "Planned" }, "geometry": { "type": "Point", "coordinates": [ -43.428970276999962, -22.999491192999983, 0.0 ] } },
{ "type": "Feature", "properties": { "Name": "RioCentro", "Corredor": "TransOlímpica", "Type": null, "Status": "Planned" }, "geometry": { "type": "Point", "coordinates": [ -43.410110302999954, -22.981868516999953, 0.0 ] } },
{ "type": "Feature", "properties": { "Name": "Bandeirantes", "Corredor": "TransOlímpica", "Type": null, "Status": "Planned" }, "geometry": { "type": "Point", "coordinates": [ -43.393630205999955, -22.963105792999954, 0.0 ] } },
{ "type": "Feature", "properties": { "Name": "Parque Olímpico", "Corredor": "TransOlímpica", "Type": null, "Status": "Planned" }, "geometry": { "type": "Point", "coordinates": [ -43.402060609999978, -22.972165070999949, 0.0 ] } },
{ "type": "Feature", "properties": { "Name": "Colonia Juliano Moreira", "Corredor": "TransOlímpica", "Type": null, "Status": "Planned" }, "geometry": { "type": "Point", "coordinates": [ -43.395463310766004, -22.928850459731386, 0.0 ] } },
{ "type": "Feature", "properties": { "Name": "Boiúna", "Corredor": "TransOlímpica", "Type": null, "Status": "Planned" }, "geometry": { "type": "Point", "coordinates": [ -43.397626314999968, -22.916486034999934, 0.0 ] } },
{ "type": "Feature", "properties": { "Name": "Marechal Fontenelle", "Corredor": "TransOlímpica", "Type": null, "Status": "Planned" }, "geometry": { "type": "Point", "coordinates": [ -43.400357614999962, -22.885356719999947, 0.0 ] } },
{ "type": "Feature", "properties": { "Name": "Magalhães Bastos", "Corredor": "TransOlímpica", "Type": null, "Status": "Planned" }, "geometry": { "type": "Point", "coordinates": [ -43.411706118999973, -22.870627728999974, 0.0 ] } },
{ "type": "Feature", "properties": { "Name": "Vila Militar", "Corredor": "TransOlímpica", "Type": null, "Status": "Planned" }, "geometry": { "type": "Point", "coordinates": [ -43.401720972999954, -22.862647941999963, 0.0 ] } },
{ "type": "Feature", "properties": { "Name": "Marechal Mallet", "Corredor": "TransOlímpica", "Type": null, "Status": "Planned" }, "geometry": { "type": "Point", "coordinates": [ -43.405493704999962, -22.875942834999933, 0.0 ] } },
{ "type": "Feature", "properties": { "Name": "Largo da Preguiça", "Corredor": "TransOlímpica", "Type": null, "Status": "Planned" }, "geometry": { "type": "Point", "coordinates": [ -43.393954622548293, -22.945419777500419, 0.0 ] } },
{ "type": "Feature", "properties": { "Name": "Hospital Raphael de P. S.", "Corredor": "TransOlímpica", "Type": null, "Status": "Planned" }, "geometry": { "type": "Point", "coordinates": [ -43.391832151999949, -22.955221737999977, 0.0 ] } },
{ "type": "Feature", "properties": { "Name": "Estaçao", "Corredor": "TransOlímpica", "Type": null, "Status": "Planned" }, "geometry": { "type": "Point", "coordinates": [ -43.434062377999965, -23.003874061999966, 0.0 ] } },
{ "type": "Feature", "properties": { "Name": "Estaçao", "Corredor": "TransOlímpica", "Type": null, "Status": "Planned" }, "geometry": { "type": "Point", "coordinates": [ -43.419122717999983, -22.990708398999971, 0.0 ] } },
{ "type": "Feature", "properties": { "Name": "Estação", "Corredor": "TransOlímpica", "Type": null, "Status": "Planned" }, "geometry": { "type": "Point", "coordinates": [ -43.396900418999962, -22.966692034999934, 0.0 ] } },
{ "type": "Feature", "properties": { "Name": "Curicica", "Corredor": "TransOlímpica", "Type": null, "Status": "Planned" }, "geometry": { "type": "Point", "coordinates": [ -43.39111357899997, -22.951014365999978, 0.0 ] } },
{ "type": "Feature", "properties": { "Name": "Guerenguê", "Corredor": "TransOlímpica", "Type": null, "Status": "Planned" }, "geometry": { "type": "Point", "coordinates": [ -43.394788564003221, -22.938109807661363, 0.0 ] } },
{ "type": "Feature", "properties": { "Name": "Equitação", "Corredor": "TransOlímpica", "Type": null, "Status": "Planned" }, "geometry": { "type": "Point", "coordinates": [ -43.408766690999983, -22.866031670999973, 0.0 ] } },
{ "type": "Feature", "properties": { "Name": "Terminal Madureira - Paulo Da Portela", "Corredor": "TransCarioca", "Type": "Expresso\/Parador", "Status": "Operational" }, "geometry": { "type": "Point", "coordinates": [ -43.33682319299993, -22.878100686999968, 0.0 ] } }
]
}
